     2.10           OBSERVATION DATA    G (GPS)             RINEX VERSION / TYPE
teqc  2005Dec16     Yunfeng Tian &      20061004 17:56:15UTCPGM / RUN BY / DATE
Linux 2.4.20-8|Pentium IV|gcc -static|Linux|486/DX+         COMMENT
teqc  2005Dec16     Yunfeng Tian &      20061004 17:54:30UTCCOMMENT
BIT 2 OF LLI FLAGS DATA COLLECTED UNDER A/S CONDITION       COMMENT
05733180                                                    MARKER NAME
0573                                                        MARKER NUMBER
-Unknown-           -Unknown-                               OBSERVER / AGENCY
0220320573          TRIMBLE 5700        NP 2.01 / SP 2.01   REC # / TYPE / VERS
00000000            TRM39105.00                             ANT # / TYPE
 -2159829.4984  4378245.8315  4090766.5934                  APPROX POSITION XYZ
        0.0000        0.0000        0.0000                  ANTENNA: DELTA H/E/N
     1     1                                                WAVELENGTH FACT L1/2
     6    L1    L2    C1    P2    P1    D1                  # / TYPES OF OBSERV
    30.0000                                                 INTERVAL
 SNR is mapped to RINEX snr flag value [0-9]                COMMENT
  L1 & L2: min(max(int(snr_dBHz/6), 0), 9)                  COMMENT
Forced Modulo Decimation to 30 seconds                      COMMENT
  2005    11    14     9     2   15.0000000     GPS         TIME OF FIRST OBS
                                                            END OF HEADER
 05 11 14  9  2 30.0000000  0  5G 7G11G20G24G28
   -123276.35247    -80109.46546  22306824.1804   22306821.9414
      2993.0634
     62446.53947     33880.59045  21742505.0944   21742500.8554
     -1491.7674
   -124122.02347    -80585.03545  22183582.4534   22183579.0744
      3008.1394
   -101787.53148    -69095.45346  20818020.3674   20818017.9104
      2481.1114
    -50529.21948    -35415.19946  20373579.4614   20373575.4534
      1231.2174
 05 11 14  9  3  0.0000000  0  5G 7G11G20G24G28
   -213258.59047   -150225.47745  22289700.6804   22289698.2814
      2999.9664
    107115.62547     68687.64845  21751005.0314   21751000.5354
     -1489.5934
   -214289.46947   -150845.35945  22166424.3914   22166420.7384
      3003.1704
   -176142.27348   -127034.18746  20803870.9384   20803868.5044
      2476.0584
    -87344.28548    -64102.26646  20366574.1024   20366569.9064
      1224.2594
 05 11 14  9  3 30.0000000  0  5G 7G11G20G24G28
   -303221.26247   -220326.24245  22272581.6334   22272579.1884
      2998.1074
    151944.82847    103619.48846  21759536.0474   21759531.7894
     -1496.1144
   -304079.29347   -220811.44545  22149337.6334   22149334.4494
      2989.3514
   -250118.56648   -184678.04746  20789793.5394   20789791.3404
      2462.2394
   -123723.23448    -92449.50046  20359651.3834   20359647.1254
      1208.5124
 05 11 14  9  4  0.0000000  0  5G 7G11G20G24G28
   -393083.96947   -290349.10245  22255481.1884   22255478.6764
      2994.4464
    197011.84447    138736.62945  21768111.7664   21768107.9344
     -1504.3474
   -393408.71947   -290418.75845  22132339.2274   22132335.5394
      2973.6604
   -323635.71948   -241964.11746  20775803.7894   20775801.5314
      2446.6024
   -159584.68448   -120393.49646  20352827.3754   20352822.7544
      1190.9224
 05 11 14  9  4 30.0000000  0  5G 7G11G20G24G28
   -482825.97347   -360277.93046  22238404.0704   22238400.5904
      2990.3754
    242334.92647    174053.30945  21776736.6564   21776732.5904
     -1512.9154
   -482254.73847   -359649.38745  22115431.9614   22115428.8874
      2957.4794
   -396673.43748   -298876.60946  20761905.0314   20761903.1024
      2430.5794
   -194907.45348   -147917.73046  20346105.5314   20346100.9344
      1172.9144
 05 11 14  9  5  0.0000000  0  5G 7G11G20G24G28
   -572438.67647   -430105.98446  22221350.7034   22221348.0354
      2986.0104
    287920.31647    209574.38745  21785411.0164   21785407.0514
     -1521.6894
   -570606.81647   -428495.14845  22098618.8204   22098616.0904
      2940.9434
   -469223.34448   -355408.99646  20748099.4924   20748097.2464
      2414.2624
   -229682.43048   -175015.10246  20339488.0164   20339483.6054
      1154.5974
 05 11 14  9  5 30.0000000  0  5G 7G11G20G24G28
   -661924.21547   -499834.94945  22204322.5864   22204319.7274
      2981.8254
    333763.23048    245296.13745  21794135.1484   21794130.9774
     -1530.2034
   -658465.21148   -496956.22345  22081900.0084   22081896.7624
      2924.5214
   -541287.54748   -411562.90646  20734386.0704   20734383.4264
      2398.1254
   -263911.07848   -201686.77746  20332974.7974   20332970.2774
      1136.4334
 05 11 14  9  6  0.0000000  0  5G 7G11G20G24G28
   -751281.91847   -569464.30146  22187318.0784   22187315.5984
      2977.5244
    379862.18448    281217.38745  21802907.0784   21802903.2934
     -1538.7574
   -745827.28147   -565030.54745  22065275.7504   22065272.4184
      2907.9224
   -612865.53148   -467337.94946  20720765.1954   20720762.9344
      2381.8824
   -297592.25448   -227931.85546  20326564.7424   20326560.8054
      1118.1384
 05 11 14  9  6 30.0000000  0  5G 7G11G20G24G28
   -840515.92647   -638997.27045  22170337.2894   22170334.8984
      2973.4444
    426210.34847    317332.85245  21811726.6414   21811722.6334
     -1547.0024
   -832695.03547   -632719.69545  22048745.6564   22048741.8364
      2891.4734
   -683962.04348   -522737.80946  20707235.6484   20707233.8094
      2365.8784
   -330729.57048   -253753.15246  20320259.9144   20320255.0784
      1100.0514
 05 11 14  9  7  0.0000000  0  6G 7G11G20G24G28G 4
   -929628.27047   -708435.43046  22153380.2274   22153377.7504
      2969.4224
    472803.40247    353639.11345  21820593.5474   21820589.6374
     -1555.1084
   -919068.80948   -700023.91845  22032309.1644   22032306.0044
      2875.0284
   -754579.24648   -577764.19146  20693797.7664   20693795.9654
      2349.9384
   -363324.37148   -279151.71146  20314056.6724   20314052.7974
      1081.9944
   -216308.40256   -140344.30153  23596512.3444   23596509.5164

 05 11 14  9  7 30.0000000  0  6G 7G11G20G24G28G 4
  -1018623.59847   -777782.41446  22136444.7974   22136442.0864
      2965.5074
    519634.21147    390130.66045  21829504.6334   21829500.6524
     -1563.0254
  -1004951.30547   -766945.32045  22015966.2424   22015962.7384
      2858.6134
   -824722.13348   -632420.96546  20680449.9384   20680448.1334
      2334.1174
   -395381.00448   -304130.91046  20307956.5084   20307952.4844
      1064.0384
   -349002.10247   -243741.97344  23571261.7034   23571258.7194
      4421.2734
 05 11 14  9  8  0.0000000  0  6G 7G11G20G24G28G 4
  -1107505.00847   -847040.62146  22119531.3754   22119528.6994
      2961.7874
    566697.20348    426803.12145  21838460.5704   21838456.9064
     -1570.6734
  -1090343.27748   -833484.50845  21999716.6564   21999713.3484
      2842.3264
   -894393.78948   -686710.54346  20667192.0634   20667190.0234
      2318.4864
   -426902.07848   -328692.77746  20301958.3984   20301954.3554
      1046.2594
   -481479.91847   -346971.45344  23546051.9304   23546048.5474
      4414.1424
 05 11 14  9  8 30.0000000  0  6G 7G11G20G24G28G 4
  -1196275.31647   -916212.26645  22102639.1724   22102636.0784
      2958.0854
    613987.02047    463652.32845  21847459.5234   21847455.6094
     -1578.2074
  -1175245.77347   -899642.28545  21983560.0314   21983556.7584
      2825.9924
   -963597.09048   -740635.17646  20654022.9144   20654020.9224
      2302.8734
   -457889.85248   -352839.08246  20296061.4384   20296057.3914
      1028.4784
   -613743.50046   -450033.94543  23520882.6414   23520880.0164
      4406.9974
 05 11 14  9  9  0.0000000  0  6G 7G11G20G24G28G 4
  -1284936.24647   -985298.68046  22085767.2194   22085764.2894
      2954.4424
    661499.59048    500675.12145  21856500.8524   21856497.0744
     -1585.6094
  -1259658.64147   -965418.53945  21967496.3364   21967493.7194
      2809.6664
  -1032334.49248   -794196.75846  20640942.5004   20640940.6214
      2287.3564
   -488345.82847   -376571.01246  20290266.0634   20290261.7584
      1010.7554
   -745793.50446   -552930.04344  23495754.4534   23495751.6254
      4399.8714
 05 11 14  9  9 30.0000000  0  6G 7G11G20G24G28G 4
  -1373486.87547  -1054299.14546  22068916.9844   22068914.0234
      2950.7824
    709233.47748    537870.36345  21865584.2974   21865580.5044
     -1592.9504
  -1343579.21147  -1030811.17645  21951527.2034   21951524.1804
      2793.2544
  -1100605.43048   -847394.86346  20627951.1024   20627949.0354
      2271.8224
   -518268.32047   -399887.24246  20284571.6884   20284567.5824
       992.9844
   -877627.98046   -655658.17243  23470666.9454   23470665.0864
      4392.6934
 05 11 14  9 10  0.0000000  0  6G 7G11G20G24G28G 4
  -1461928.65247  -1123214.79346  22052086.8284   22052084.4344
      2947.1614
    757184.51247    575234.82445  21874709.3594   21874705.5594
     -1600.1594
  -1427007.07048  -1095819.89145  21935651.4064   21935648.2344
      2776.8284
  -1168411.44948   -900230.69946  20615048.2274   20615046.2384
      2256.3414
   -547658.79748   -422788.92246  20278979.2344   20278975.1054
       975.2574
  -1009247.25846   -758218.57844  23445620.3754   23445618.2734
      4385.5214
 05 11 14  9 10 30.0000000  0  6G 7G11G20G24G28G 4
  -1550262.77748  -1192046.56246  22035277.2734   22035274.8484
      2943.5694
    805349.10247    612765.68045  21883874.6174   21883871.2814
     -1607.2634
  -1509941.57448  -1160444.16045  21919869.7274   21919866.5164
      2760.3584
  -1235754.45748   -952705.74646  20602233.1174   20602231.2034
      2240.9044
   -576517.80147   -445276.45746  20273487.2584   20273483.0004
       957.5334
  -1140651.47346   -860611.43444  23420615.1564   23420612.8364
      4378.3394
 05 11 14  9 11  0.0000000  0  6G 7G11G20G24G28G 4
  -1638487.26248  -1260792.91446  22018488.6954   22018485.9414
      2939.8804
    853726.81347    650462.59845  21893080.5474   21893076.8094
     -1614.3744
  -1592378.85948  -1224680.98846  21904182.5864   21904179.2894
      2743.7374
  -1302632.66848  -1004818.60946  20589506.6334   20589504.4144
      2225.3854
   -604843.17248   -467348.17246  20268097.1334   20268092.8874
       939.7084
  -1271837.33646   -962834.12144  23395651.0864   23395648.6334
      4371.0234
 05 11 14  9 11 30.0000000  0  6G 7G11G20G24G28G 4
  -1726602.21148  -1329453.89846  22001721.0234   22001718.4344
      2936.2414
    902315.02748    688323.54745  21902326.8834   21902322.7114
     -1621.3634
  -1674317.46548  -1288529.23445  21888589.9064   21888586.3834
      2727.1164
  -1369046.76648  -1056569.84046  20576868.5004   20576866.0904
      2209.9274
   -632634.85548   -489004.03946  20262808.6644   20262804.6524
       921.9354
  -1402804.22747  -1064886.17644  23370729.1024   23370726.6994
      4363.7244
 05 11 14  9 12  0.0000000  0  6G 7G11G20G24G28G 4
  -1814608.00047  -1398029.81646  21984973.9304   21984971.1484
      2932.6334
    951111.15248    726346.49645  21911612.4924   21911607.9414
     -1628.2474
  -1755755.88748  -1351987.73046  21873092.8284   21873089.1454
      2710.4574
  -1434997.48448  -1107960.00046  20564318.3444   20564316.2974
      2194.5134
   -659892.82047   -510244.01646  20257621.3914   20257617.3244
       904.1654
  -1533551.29747  -1166766.96544  23345848.8984   23345846.5554
      4356.4154
 05 11 14  9 12 30.0000000  0  7G 7G11G20G24G28G 8G 4
  -1902506.25048  -1466521.94146  21968247.4774   21968244.8634
      2929.0624
   1000110.87948    764528.10245  21920936.7894   21920932.4384
     -1634.9954
  -1836694.12948  -1415056.47746  21857690.4924   21857687.0824
      2693.7794
  -1500487.07048  -1158990.82446  20551856.0944   20551853.8094
      2179.1584
   -686618.57048   -531069.28546  20252535.7114   20252531.7234
       886.4364
    126704.10246     84120.69943  23734265.4614   23734264.3554
     -2457.2644
  -1664079.33647  -1268477.05144  23321010.6484   23321007.9774
      4349.1184
 05 11 14  9 13  0.0000000  0  7G 7G11G20G24G28G 8G 4
  -1990298.34447  -1534931.34046  21951541.0084   21951538.4924
      2925.5014
   1049310.06647    802865.13745  21930298.9384   21930294.6134
     -1641.6494
  -1917131.79748  -1477735.16446  21842383.8914   21842380.6844
      2677.0574
  -1565517.28148  -1209663.70746  20539481.6564   20539478.9694
      2163.8294
   -712812.94148   -551480.48046  20247551.4144   20247547.0434
       868.6994
    200483.98446    141611.53943  23748305.4844   23748304.7234
     -2460.0234
  -1794388.47746  -1370016.57044  23296213.5634   23296210.1914
      4341.7904
 05 11 14  9 13 30.0000000  0  7G 7G11G20G24G28G 8G 4
  -2077983.24248  -1603257.21146  21934855.4774   21934852.2544
      2921.9544
   1098708.06648    841357.08245  21939699.1884   21939695.1134
     -1648.2294
  -1997066.14548  -1540021.65645  21827172.8754   21827169.4694
      2660.2914
  -1630087.59848  -1259978.21146  20527194.0084   20527191.9064
      2148.5304
   -738474.93048   -571476.83646  20242667.4694   20242663.5554
       850.9784
    274344.22346    199164.92243  23762362.0394   23762359.4774
     -2462.6454
  -1924476.65247  -1471383.91444  23271458.1414   23271455.7074
      4334.4444
 05 11 14  9 14  0.0000000  0  7G 7G11G20G24G28G 8G 4
  -2165561.42248  -1671499.93046  21918189.6254   21918186.7814
      2918.4164
   1148301.24648    880001.12145  21949136.4454   21949132.0274
     -1654.6914
  -2076496.07048  -1601915.09046  21812057.9694   21812054.4224
      2643.4844
  -1694199.09848  -1309935.20346  20514993.9924   20514991.7464
      2133.2604
   -763605.20747   -591058.86346  20237885.6334   20237881.9774
       833.2744
    348280.91046    256777.86743  23776431.3914   23776429.0354
     -2465.1454
  -2054343.59047  -1572578.87544  23246744.7344   23246742.7854
      4327.0784
 05 11 14  9 14 30.0000000  0  7G 7G11G20G24G28G 8G 4
  -2253033.19147  -1739659.73046  21901544.0634   21901541.5514
      2914.8284
   1198087.09848    918795.28945  21958610.4224   21958606.1294
     -1661.1364
  -2155420.36348  -1663414.52346  21797038.9384   21797035.7344
      2626.5814
  -1757852.54748  -1359535.28146  20502881.5004   20502878.7234
      2117.9584
   -788203.48048   -610226.35546  20233205.1724   20233201.2154
       815.5014
    422289.79746    314447.14144  23790515.2114   23790512.1094
     -2467.5574
  -2183988.37947  -1673600.70744  23222074.0234   23222071.8634
      4319.6264
 05 11 14  9 15  0.0000000  0  7G 7G11G20G24G28G 8G 4
  -2340393.91848  -1807733.01646  21884920.0704   21884917.3244
      2911.0774
   1248067.82448    957741.30145  21968121.4614   21968117.3054
     -1667.6594
  -2233832.67248  -1724515.01246  21782117.5084   21782114.5394
      2609.4484
  -1821044.02348  -1408775.37146  20490856.3754   20490854.1214
      2102.5144
   -812265.18748   -628975.72746  20228625.9774   20228622.1764
       797.5624
    496371.84046    372173.36343  23804612.5234   23804609.7544
     -2470.0144
  -2313405.53947  -1774445.18744  23197447.5004   23197444.3714
      4311.9844
 05 11 14  9 15 30.0000000  0  7G 7G11G20G24G28G 8G 4
  -2427629.26248  -1875708.59446  21868319.7974   21868316.8134
      2906.6684
   1298255.19948    996848.35245  21977671.5004   21977667.6374
     -1674.7554
  -2311717.24248  -1785204.27346  21767296.6094   21767293.1454
      2591.6154
  -1883759.88348  -1457644.84846  20478921.8284   20478919.3834
      2086.4374
   -835775.89148   -647295.75846  20224152.2504   20224148.2034
       778.9664
    570537.21146    429964.52043  23818725.5394   23818722.9384
     -2472.9874
  -2442579.91446  -1875100.46944  23172865.3674   23172863.5824
      4303.6554
 05 11 14  9 16  0.0000000  0  7G 7G11G20G24G28G 8G 4
  -2514716.21948  -1943568.53546  21851747.6884   21851744.7074
      2901.6204
   1348669.89147   1036132.52745  21987265.2114   21987261.2734
     -1682.4164
  -2389049.36748  -1845463.05146  21752580.6804   21752577.1804
      2573.0834
  -1945977.76248  -1506126.28146  20467081.9694   20467079.6804
      2069.7374
   -858712.69948   -665168.60546  20219787.1174   20219783.5084
       759.7324
    644805.17246    487835.62544  23832857.4384   23832856.0434
     -2476.4814
  -2571487.44946  -1975547.84444  23148335.4384   23148332.8054
      4294.6414
 05 11 14  9 16 30.0000000  0  7G 7G11G20G24G28G 8G 4
  -2601650.96548  -2011309.88346  21835204.6644   21835201.5314
      2896.5954
   1399312.93047   1075594.63745  21996902.1724   21996898.4224
     -1689.9564
  -2465823.82448  -1905287.27346  21737970.8914   21737967.8524
      2554.5294
  -2007694.22748  -1554217.00446  20455337.9304   20455335.6764
      2053.0774
   -881071.33648   -682590.93746  20215532.6174   20215528.9804
       740.5104
    719175.60546    545786.56643  23847010.6414   23847008.6374
     -2479.8154
  -2700123.49647  -2075783.66044  23123856.8054   23123854.1524
      4285.6434
 05 11 14  9 17  0.0000000  0  7G 7G11G20G24G28G 8G 4
  -2688444.34848  -2078941.08246  21818688.6174   21818685.6214
      2891.9324
   1450171.20747   1115224.46145  22006579.9924   22006576.4024
     -1697.0634
  -2542049.73448  -1964684.07846  21723465.5634   21723462.2894
      2536.2844
  -2068920.95748  -1601926.10946  20443686.9064   20443684.1684
      2036.8114
   -902863.16848   -699571.59046  20211385.9774   20211382.1374
       721.6674
    793634.43446    603806.42243  23861178.9304   23861177.5704
     -2482.6854
  -2828497.74647  -2175815.48844  23099428.2974   23099425.3874
      4276.9544
 05 11 14  9 17 30.0000000  0  7G 7G11G20G24G28G 8G 4
  -2775100.61348  -2146465.42246  21802198.2974   21802195.5234
      2887.4424
   1501238.36347   1155017.05945  22016297.6024   22016293.9924
     -1703.9314
  -2617729.98448  -2023655.70346  21709064.2114   21709061.1134
      2518.1654
  -2129662.91048  -1649257.50046  20432127.8054   20432125.7544
      2020.7394
   -924091.94548   -716113.49646  20207346.2344   20207342.4264
       702.9804
    868173.39846    661888.72343  23875362.4614   23875361.8594
     -2485.2354
  -2956613.56647  -2275645.95744  23075048.6414   23075045.0944
      4268.4174
 05 11 14  9 18  0.0000000  0  7G 7G11G20G24G28G 8G 4
  -2861625.88748  -2213887.69946  21785732.6884   21785729.7274
      2883.1164
   1552505.42647   1194965.41045  22026053.8984   22026050.0124
     -1710.5244
  -2692869.29748  -2082205.79346  21694765.6564   21694762.8054
      2500.1614
  -2189926.65248  -1696216.24646  20420660.1884   20420657.6294
      2004.8444
   -944764.23847   -732221.78546  20203412.2344   20203408.2974
       684.4784
    942782.77346    720025.88743  23889560.0474   23889559.1994
     -2487.5164
  -3084476.11747  -2375279.05144  23050717.0784   23050713.5904
      4260.0044
 05 11 14  9 18 30.0000000  0  7G 7G11G20G24G28G 8G 4
  -2948024.83248  -2281211.52746  21769291.6094   21769288.9064
      2878.8884
   1603965.28147   1235064.00445  22035846.2974   22035842.3634
     -1716.9484
  -2767470.89548  -2140336.87946  21680569.4384   21680566.3914
      2482.2114
  -2249717.93748  -1742806.84046  20409282.0784   20409279.9144
      1989.0834
   -964884.53947   -747899.94546  20199583.4304   20199579.8794
       666.0514
   1017453.68046    778211.01243  23903770.0704   23903768.0124
     -2489.5484
  -3212089.27047  -2474717.82844  23026433.4774   23026430.4844
      4251.6654
 05 11 14  9 19  0.0000000  0  7G 7G11G20G24G28G 8G 4
  -3034297.96148  -2348437.32046  21752874.4694   21752871.5984
      2874.7384
   1655614.93047   1275310.46945  22045674.3914   22045670.9924
     -1723.2134
  -2841534.12548  -2198048.46946  21666476.1804   21666472.6884
      2464.2954
  -2309037.97348  -1789030.23846  20397993.8914   20397991.8404
      1973.4224
   -984453.37947   -763148.38346  20195859.5944   20195855.6644
       647.7134
   1092181.60946    836440.52343  23917991.0474   23917988.5864
     -2491.3744
  -3339452.79747  -2573962.09844  23002196.6254   23002193.9304
      4243.3764
 05 11 14  9 19 30.0000000  0  7G 7G11G20G24G28G 8G 4
  -3120446.18748  -2415565.79746  21736480.5084   21736478.4144
      2870.5394
   1707451.30147   1315702.44545  22055538.9384   22055535.1804
     -1729.4544
  -2915058.30948  -2255340.02346  21652484.5164   21652481.5474
      2446.2824
  -2367888.29748  -1834887.63346  20386794.9454   20386792.7854
      1957.7414
  -1003471.77047   -777967.90646  20192240.7664   20192236.6764
       629.3354
   1166962.15646    894711.05143  23932221.5784   23932219.3594
     -2493.1334
  -3466566.59447  -2673011.76244  22978007.6094   22978005.0944
      4235.0124
 05 11 14  9 20  0.0000000  0  7G 7G11G20G24G28G 8G 4
  -3206469.07047  -2482596.60246  21720111.3364   21720108.5124
      2866.3624
   1759472.07447   1356238.10945  22065438.1254   22065434.1914
     -1735.5784
  -2988041.69948  -2312210.16846  21638596.1334   21638592.9384
      2428.2454
  -2426269.57848  -1880379.52346  20375685.4844   20375682.9654
      1942.1124
  -1021939.54747   -792358.39846  20188726.2734   20188722.2344
       610.9814
   1241792.27046    953020.15243  23946461.5314   23946459.4964
     -2494.7634
  -3593429.48047  -2771865.89544  22953865.9224   22953863.8134
      4226.6444
 05 11 14  9 20 30.0000000  0  7G 7G11G20G24G28G 8G 4
  -3292363.83647  -2549527.57046  21703765.9694   21703763.4144
      2862.1064
   1811677.40647   1396917.57445  22075372.5394   22075368.3054
     -1741.6974
  -3060480.21548  -2368655.74246  21624811.6414   21624808.7234
      2410.0764
  -2484179.73048  -1925504.30546  20364665.8594   20364662.9884
      1926.4304
  -1039854.38748   -806318.02046  20185317.4454   20185313.2584
       592.5654
   1316670.57046   1011366.84843  23960709.4844   23960707.7274
     -2496.3224
  -3720037.78147  -2870521.67644  22929773.2734   22929771.3404
      4218.1644
 05 11 14  9 21  0.0000000  0  7G 7G11G20G24G28G 8G 4
  -3378131.21947  -2616359.28146  21687445.1644   21687442.3134
      2857.8494
   1864064.49647   1437738.67245  22085341.3984   22085337.5084
     -1747.7414
  -3132373.24248  -2424676.25846  21611130.7114   21611127.7854
      2391.8924
  -2541620.41448  -1970263.25846  20353734.9454   20353732.5864
      1910.7824
  -1057216.89848   -819847.25046  20182013.4304   20182008.8404
       574.1494
   1391592.73446   1069747.76244  23974966.8444   23974964.8634
     -2497.7534
  -3846391.60547  -2968979.17644  22905729.4454   22905727.0554
      4209.6684
 05 11 14  9 21 30.0000000  0  7G 7G11G20G24G28G 8G 4
  -3463771.03148  -2683091.57846  21671148.3674   21671145.3364
      2853.6244
   1916631.03147   1478699.60945  22095344.7584   22095340.4184
     -1753.6754
  -3203719.62148  -2480270.82846  21597554.4614   21597550.5664
      2373.6774
  -2598592.20348  -2014656.85246  20342893.4454   20342891.5124
      1895.1834
  -1074027.13748   -832946.14546  20178814.5634   20178809.8404
       555.7664
   1466555.09846   1128160.00843  23989231.6724   23989230.8204
     -2499.0394
  -3972489.50847  -3067237.22745  22881733.9384   22881731.9304
      4201.1554
 05 11 14  9 22  0.0000000  0  7G 7G11G20G24G28G 8G 4
  -3549283.62547  -2749724.76246  21654875.8984   21654872.9224
      2849.3294
   1969373.95747   1519797.98845  22105381.2034   22105377.7114
     -1759.5874
  -3274518.18048  -2535438.50846  21584081.5864   21584078.4344
      2355.3474
  -2655096.48848  -2058686.16446  20332141.2894   20332139.0554
      1879.5544
  -1090285.84848   -845615.26646  20175720.7194   20175716.2814
       537.3304
   1541553.21946   1186600.07443  24003502.7114   24003501.7774
     -2500.2504
  -4098331.49647  -3165295.86344  22857786.6094   22857784.8484
      4192.5664
 05 11 14  9 22 30.0000000  0  7G 7G11G20G24G28G 8G 4
  -3634668.91848  -2816258.73446  21638627.7424   21638624.6024
      2845.1124
   2022291.00047   1561032.05945  22115451.1804   22115446.8484
     -1765.3454
  -3344767.83648  -2590178.48046  21570713.3364   21570710.0434
      2337.0714
  -2711133.92648  -2102351.69946  20321477.4144   20321475.1294
      1864.0224
  -1105993.11747   -857854.70746  20172731.3754   20172727.4344
       518.9804
   1616583.37946   1245065.12943  24017781.5634   24017780.0354
     -2501.2564
  -4223916.52347  -3263154.25445  22833888.4844   22833886.8054
      4184.0214
 05 11 14  9 23  0.0000000  0  7G 7G11G20G24G28G 8G 4
  -3719927.02048  -2882693.60546  21622403.8134   21622400.6374
      2840.8804
   2075379.52747   1602399.72345  22125553.6954   22125549.6024
     -1771.0334
  -3414467.49248  -2644489.88346  21557449.9534   21557446.5784
      2318.7364
  -2766705.48448  -2145654.20346  20310902.3284   20310900.1414
      1848.5124
  -1121149.74247   -869665.06646  20169847.4614   20169843.6374
       500.6384
   1691641.84046   1303552.20343  24032064.8914   24032062.3244
     -2502.1654
  -4349244.23847  -3360812.16845  22810039.5704   22810037.4614
      4175.4474
 05 11 14  9 23 30.0000000  0  7G 7G11G20G24G28G 8G 4
  -3805056.37948  -2949028.15246  21606204.0474   21606201.2774
      2836.5674
   2128638.73047   1643900.39145  22135688.6414   22135684.6684
     -1776.7234
  -3483614.44948  -2698370.60546  21544291.7814   21544287.8634
      2300.2844
  -2821810.69948  -2188593.31646  20300416.4144   20300414.2034
      1832.9554
  -1135754.01247   -881045.02746  20167068.3134   20167064.3324
       482.2014
   1766726.36346   1362059.58643  24046352.6174   24046349.9454
     -2503.0204
  -4474311.89847  -3458267.43745  22786239.7194   22786237.7464
      4166.7524
 05 11 14  9 24  0.0000000  0  7G 7G11G20G24G28G 8G 4
  -3890056.74647  -3015262.18746  21590028.6414   21590026.0394
      2832.2564
   2182066.34447   1685532.30145  22145855.4844   22145851.6724
     -1782.3274
  -3552207.25847  -2751819.52746  21531239.1254   21531235.1094
      2281.7884
  -2876450.35548  -2231169.65646  20290018.5704   20290016.1764
      1817.4304
  -1149806.12947   -891994.71946  20164394.2814   20164390.0204
       463.7894
   1841833.28946   1420584.39143  24060645.1884   24060642.2704
     -2503.7534
  -4599118.75847  -3555519.48045  22762489.1024   22762487.4534
      4158.0334
 05 11 14  9 24 30.0000000  0  7G 7G11G20G24G28G 8G 4
  -3974927.38748  -3081395.12946  21573878.4534   21573875.8364
      2827.9534
   2235660.62147   1727294.09445  22156054.1884   22156050.2704
     -1787.8454
  -3620244.13747  -2804835.24646  21518291.7894   21518288.0434
      2263.2684
  -2930624.60948  -2273383.35546  20279709.4384   20279707.4884
      1801.9474
  -1163305.91048   -902514.02046  20161825.0784   20161821.2234
       445.4014
   1916959.93446   1479124.59444  24074941.5634   24074938.1604
     -2504.3584
  -4723663.25847  -3652567.07444  22738789.5004   22738787.2934
      4149.3054
 05 11 14  9 25  0.0000000  0  7G 7G11G20G24G28G 8G 4
  -4059665.90247  -3147425.12146  21557753.2034   21557750.3164
      2823.5234
   2289421.66447   1769185.81645  22166284.2734   22166280.3364
     -1793.4084
  -3687721.41847  -2857414.92646  21505451.4384   21505447.7074
      2244.5764
  -2984332.21148  -2315233.41446  20269489.4924   20269487.1054
      1786.3774
  -1176251.36348   -912601.39546  20159361.6024   20159357.9454
       426.9034
   1992104.53946   1537678.79343  24089241.0474   24089237.8874
     -2504.9444
  -4847942.36747  -3749407.88345  22715139.7344   22715137.4614
      4140.4234
 05 11 14  9 25 30.0000000  0  7G 7G11G20G24G28G 8G 4
  -4144272.48448  -3213352.31646  21541653.1024   21541650.4064
      2819.1254
   2343346.48047   1811205.15645  22176546.0164   22176541.8874
     -1798.8484
  -3754638.68747  -2909558.23446  21492717.7584   21492714.3954
      2225.9094
  -3037574.25048  -2356720.70746  20259358.0314   20259355.6214
      1770.8574
  -1188643.09048   -922257.30146  20157003.8134   20156999.8014
       408.4484
   2067262.91846   1596243.76243  24103542.6884   24103540.6254
     -2505.3784
  -4971955.52347  -3846041.47345  22691540.8674   22691538.0704
      4131.5544
 05 11 14  9 26  0.0000000  0  6G 7G11G20G24G28G 4
  -4228746.85948  -3279176.49246  21525578.0944   21525575.5124
      2814.7094
   2397433.27047   1853350.71145  22186838.2584   22186833.7894
     -1804.2334
  -3820994.48048  -2961264.01646  21480090.4224   21480087.4494
      2207.1744
  -3090351.33248  -2397845.68746  20249314.7504   20249312.5394
      1755.3644
  -1200481.29348   -931481.87546  20154751.4694   20154747.3524
       389.9974
  -5095701.67647  -3942467.00044  22667993.0234   22667990.2934
      4122.6444
 05 11 15 12 25  0.0000000  0  7G 2G 4G 5G 7G10G13G24
    -89918.96948    -58507.66446  21033986.7114   21033981.5594
      2621.9384
     -5623.35248     -7699.65246  20561343.5004   20561340.6884
       166.2054
    -41516.73447    -30491.86745  22932230.4064   22932227.4694
      1229.7434
     34113.93048     16368.15646  21172063.3524   21172060.6484
      -998.3374
   -115839.73846    -82585.00454  23304338.2664   23304335.8554
      4527.7074
    -81183.74647    -53931.12544  22538863.7424   22538860.3834
      2391.9484
     46257.94147     23926.72344  23031024.1024   23031022.0274
     -1358.7264
 05 11 15 12 25 30.0000000  0  8G 2G 4G 5G 7G10G13G23G24
   -168622.46148   -119835.05146  21019010.0234   21019004.6844
      2622.6814
    -10647.48848    -11614.56646  20560387.7424   20560384.4224
       166.6294
    -78205.34846    -59080.39545  22925249.2194   22925246.0434
      1219.4224
     64142.04348     39766.68046  21177777.3984   21177774.7034
     -1003.0714
   -251726.32446   -188470.63744  23278480.1644   23278477.0864
      4528.8954
   -152769.24247   -109712.00045  22525241.2274   22525237.3524
      2382.9914
    -19214.37146    -17371.39844  23390150.8284   23390145.7114
       319.5734
     86849.71147     55556.68444  23038748.3984   23038746.0044
     -1352.4404
 05 11 15 12 26  0.0000000  0  8G 2G 4G 5G 7G10G13G23G24
   -247165.53548   -181037.44546  21004063.6644   21004058.1564
      2616.3954
    -15502.67248    -15397.84046  20559463.8054   20559460.6804
       160.0624
   -114402.32846    -87285.84044  22918360.9454   22918357.6454
      1202.1044
     94493.67648     63417.29346  21183552.8524   21183550.0164
     -1014.7844
   -387465.01247   -294241.02344  23252650.3524   23252646.8714
      4523.0154
   -223902.89847   -165140.78544  22511704.8594   22511700.9454
      2366.9784
    -28415.39546    -24541.04744  23388400.2274   23388394.4844
       302.2334
    127434.95746     87181.54744  23046471.4844   23046469.4804
     -1353.1604
 05 11 15 12 26 30.0000000  0  8G 2G 4G 5G 7G10G13G23G24
   -325488.78948   -242068.54746  20989159.4774   20989154.2544
      2608.8494
    -20130.41048    -19003.87546  20558583.2584   20558580.3634
       152.2724
   -150048.81247   -115062.32845  22911577.7344   22911574.2274
      1183.5374
    125227.11747     87365.43446  21189401.6414   21189398.3244
     -1027.7204
   -522994.73047   -399848.59444  23226859.9384   23226856.5594
      4515.8164
   -294523.05947   -220169.46944  22498266.0554   22498263.0784
      2349.6244
    -37065.30946    -31281.23844  23386753.6724   23386747.8634
       283.6464
    168072.42247    118847.07844  23054204.9384   23054202.5274
     -1355.1114
 05 11 15 12 27  0.0000000  0  8G 2G 4G 5G 7G10G13G23G24
   -403575.45348   -302915.27746  20974299.9534   20974294.8054
      2600.8844
    -24514.79348    -22420.27746  20557749.1414   20557745.9454
       144.0884
   -185128.65647   -142397.27744  22904902.6884   22904898.8674
      1164.5794
    156357.89547    111623.17246  21195325.4534   21195322.2234
     -1041.0334
   -658297.32046   -505279.18743  23201112.1954   23201109.4734
      4508.1564
   -364611.12147   -274783.51644  22484928.5704   22484925.7934
      2331.7954
    -45148.07046    -37579.50844  23385215.6804   23385210.5234
       264.6744
    208778.38747    150565.98844  23061950.6884   23061948.5044
     -1357.4624
 05 11 15 12 27 30.0000000  0  8G 2G 4G 5G 7G10G13G23G24
   -481421.47348   -363574.51646  20959486.3834   20959480.9804
      2592.8794
    -28652.64848    -25644.57846  20556961.3284   20556958.8484
       135.8914
   -219638.58647   -169288.15245  22898335.5704   22898332.4454
      1145.5984
    187889.09048    136192.92646  21201325.7814   21201322.2584
     -1054.3544
   -793366.96946   -610528.22744  23175409.5554   23175406.2934
      4500.3874
   -434161.44147   -328978.55945  22471693.7584   22471690.6454
      2313.8734
    -52660.41846    -43433.26244  23383786.2734   23383780.9574
       245.6734
    249555.80947    182340.59844  23069710.2424   23069708.0824
     -1359.8254
 05 11 15 12 28  0.0000000  0  8G 2G 4G 5G 7G10G13G23G24
   -559023.44548   -424043.56646  20944719.0394   20944713.9024
      2584.6724
    -32541.69548    -28675.00446  20556221.9924   20556218.6094
       127.5374
   -253576.00047   -195732.90245  22891876.9304   22891874.4454
      1126.4554
    219822.45347    161076.06646  21207402.1954   21207399.4184
     -1067.8204
   -928198.83246   -715591.98044  23149751.2114   23149749.0044
      4492.3804
   -503169.12547   -382750.77044  22458561.6644   22458558.8094
      2295.7024
    -59599.64146    -48840.42644  23382465.9614   23382460.1094
       226.5034
    290407.24647    214172.84844  23077484.5004   23077481.7854
     -1362.3534
 05 11 15 12 28 30.0000000  0  8G 2G 4G 5G 7G10G13G23G24
   -636380.94548   -484322.13746  20929998.7114   20929993.3594
      2576.5344
    -36182.33648    -31511.86346  20555528.9774   20555525.9304
       119.2784
   -286941.23847   -221731.79745  22885528.1414   22885525.2344
      1107.3994
    252157.34848    186272.08646  21213555.1884   21213552.2584
     -1081.1794
  -1062791.06246   -820469.02044  23124139.5084   23124137.2974
      4484.3974
   -571632.14147   -436098.57844  22445533.7424   22445530.3284
      2277.5474
    -65966.72746    -53801.82044  23381254.1414   23381247.6954
       207.4614
    331332.85547    246062.93845  23085272.4224   23085269.7154
     -1364.8144
 05 11 15 12 29  0.0000000  0  8G 2G 4G 5G 7G10G13G23G24
   -713493.69548   -544409.98446  20915324.3204   20915318.7624
      2568.3974
    -39575.37948    -34155.80146  20554882.8674   20554879.8714
       111.0534
   -319734.78946   -247285.21145  22879287.6644   22879284.3714
      1088.3704
    284892.56648    211780.03946  21219784.6094   21219782.0084
     -1094.4954
  -1197142.35247   -925158.30544  23098573.3444   23098570.9414
      4476.3724
   -639548.67247   -489020.53944  22432609.8444   22432606.0944
      2259.3314
    -71762.45347    -58317.94944  23380151.6644   23380144.0434
       188.4454
    372331.98047    278010.27044  23093073.8674   23093071.9384
     -1367.2364
 05 11 15 12 29 30.0000000  0  8G 2G 4G 5G 7G10G13G23G24
   -790362.53548   -604307.77046  20900696.9534   20900691.0824
      2560.2454
    -42722.80148    -36608.33646  20554283.8594   20554280.8754
       102.8554
   -351958.50047   -272394.60245  22873156.0474   22873152.5434
      1069.3614
    318026.03947    237598.31646  21226089.7894   21226087.0904
     -1107.7794
  -1331251.60547  -1029659.01644  23073052.1644   23073050.6414
      4468.2714
   -706917.98847   -541516.09045  22419790.2194   22419786.2624
      2241.0634
    -76988.38347    -62390.08244  23379157.2194   23379149.9694
       169.4354
    413402.57047    310013.27745  23100889.8284   23100887.5124
     -1369.6324
 05 11 15 12 30  0.0000000  0  8G 2G 4G 5G 7G10G13G23G24
   -866986.76648   -664014.95346  20886115.6884   20886110.3244
      2552.1244
    -45624.49648    -38869.39146  20553731.5944   20553728.4454
        94.7014
   -383612.40647   -297059.98845  22867132.5164   22867129.2424
      1050.4064
    351557.16447    263726.46546  21232471.0084   21232468.0274
     -1120.9924
  -1465116.70747  -1133969.46544  23047578.9224   23047576.8164
      4460.1504
   -773737.85247   -593583.49644  22407074.2974   22407070.0824
      2222.7654
    -81644.55146    -66018.25044  23378271.0554   23378264.1884
       150.4834
    454545.03547    342072.32844  23108718.8914   23108717.1174
     -1371.9884
 05 11 15 12 30 30.0000000  0  8G 2G 4G 5G 7G10G13G23G24
   -943366.36748   -723531.52346  20871581.3834   20871575.9654
      2543.9554
    -48281.34848    -40939.67646  20553226.2194   20553222.9654
        86.5364
   -414697.16447   -321281.87545  22861217.1724   22861213.8244
      1031.4294
    385484.83248    290163.60246  21238926.8834   21238924.0904
     -1134.2134
  -1598736.15647  -1238088.49244  23022152.6954   23022150.3634
      4451.9364
   -840006.64147   -645221.49645  22394464.1954   22394460.0004
      2204.3724
    -85732.07046    -69203.32444  23377492.9614   23377486.4184
       131.5224
    495758.43447    374186.64144  23116561.3204   23116559.1564
     -1374.3604
 05 11 15 12 31  0.0000000  0  8G 2G 4G 5G 7G10G13G23G24
  -1019502.50848   -782858.37546  20857093.2344   20857087.6094
      2535.8154
    -50695.72748    -42821.01646  20552766.9144   20552763.8984
        78.4354
   -445215.11347   -345062.10245  22855409.8524   22855406.2894
      1012.5194
    419806.26647    316907.56645  21245457.6484   21245455.3094
     -1147.3524
  -1732109.82047  -1342016.02044  22996771.9614   22996769.7584
      4443.7114
   -905724.36747   -696430.09845  22381958.2734   22381954.9654
      2185.9624
    -89253.38746    -71947.19544  23376822.8364   23376816.4494
       112.6414
    537040.70747    406354.62544  23124417.4384   23124415.5044
     -1376.6744
 05 11 15 12 31 30.0000000  0  8G 2G 4G 5G 7G10G13G23G24
  -1095393.18448   -841993.95346  20842651.1094   20842645.8014
      2527.6504
    -52866.56648    -44512.57846  20552353.7424   20552350.6604
        70.3384
   -475165.28547   -368399.91045  22849710.7814   22849707.4454
       993.6174
    454522.10247    343958.86346  21252064.2114   21252061.5824
     -1160.4694
  -1865234.24647  -1445749.32044  22971439.1564   22971437.3714
      4435.4014
   -970887.25447   -747206.36745  22369558.3204   22369554.3984
      2167.4724
    -92207.57847    -74249.18444  23376261.1174   23376255.2544
        93.7594
    578393.50847    438577.54344  23132286.1024   23132284.3714
     -1379.0024
 05 11 15 12 32  0.0000000  0  8G 2G 4G 5G 7G10G13G23G24
  -1171036.36348   -900936.68446  20828256.9454   20828251.1374
      2519.3914
    -54792.85248    -46013.57846  20551986.9924   20551984.4454
        62.1914
   -504546.44147   -391294.31245  22844119.4224   22844116.1094
       974.6524
    489633.00047    371317.99245  21258745.6414   21258743.2974
     -1173.6364
  -1998105.89846  -1549285.63744  22946154.4454   22946152.3914
      4426.9564
  -1035491.82047   -797547.57845  22357264.3914   22357260.6024
      2148.8454
    -94593.62146    -76108.42244  23375806.2894   23375801.3014
        74.8194
    619817.92247    470856.27744  23140168.2424   23140167.1524
     -1381.3934
 05 11 15 12 32 30.0000000  0  8G 2G 4G 5G 7G10G13G23G24
  -1246434.35948   -959688.36346  20813909.2114   20813903.8054
      2511.2394
    -56477.78148    -47326.50846  20551666.8054   20551664.1254
        54.1704
   -533361.97347   -413747.99645  22838635.7424   22838632.2974
       955.8214
    525135.20747    398982.03946  21265501.1804   21265499.1334
     -1186.6494
  -2130725.80147  -1652625.80544  22920917.8754   22920915.0124
      4418.5694
  -1099539.40247   -847454.77745  22345076.7584   22345073.2504
      2130.2854
    -96415.09047    -77527.75444  23375460.0864   23375454.6294
        56.0284
    661310.80947    503188.37144  23148064.5634   23148062.8594
     -1383.6474
 05 11 15 12 33  0.0000000  0  8G 2G 4G 5G 7G10G13G23G24
  -1321587.80548  -1018249.48446  20799608.1094   20799602.4734
      2503.0424
    -57922.66448    -48452.38746  20551391.5704   20551388.7974
        46.1334
   -561613.27347   -435762.00845  22833259.9534   22833256.4304
       936.9854
    561027.01247    426949.66846  21272331.3134   21272329.3554
     -1199.6624
  -2263092.71147  -1755768.82444  22895729.0784   22895726.0824
      4410.0904
  -1163028.49647   -896926.76645  22332995.1804   22332991.6094
      2111.6154
    -97673.16046    -78508.03544  23375220.7424   23375215.4654
        37.2194
    702871.03147    535572.91844  23155973.6174   23155971.8954
     -1385.9254
 05 11 15 12 33 30.0000000  0  8G 2G 4G 5G 7G10G13G23G24
  -1396494.05948  -1076617.99246  20785353.3134   20785348.4494
      2494.8164
    -59126.07848    -49390.10546  20551162.6804   20551159.5434
        38.1084
   -589299.09447   -457335.39545  22827991.5394   22827988.3554
       918.1524
    597309.21947    455221.51645  21279235.4534   21279233.3324
     -1212.6564
  -2395203.23847  -1858712.05144  22870589.8284   22870586.8014
      4401.5364
  -1225955.83247   -945961.04345  22321020.6024   22321016.6524
      2092.8884
    -98366.93047    -79048.64544  23375088.6724   23375082.8834
        18.4284
    744500.30147    568011.29745  23163895.8914   23163894.3284
     -1388.2174
 05 11 15 12 34  0.0000000  0  8G 2G 4G 5G 7G10G13G23G24
  -1471152.44548  -1134793.33246  20771146.3284   20771141.4964
      2486.5334
    -60088.32048    -50139.90646  20550979.5004   20550976.4774
        30.0544
   -616419.69147   -478468.34445  22822830.3914   22822827.8794
       899.3024
    633981.24647    483797.11746  21286214.0394   21286212.2274
     -1225.6584
  -2527054.73847  -1961453.46544  22845499.8134   22845496.2664
      4392.8754
  -1288318.81647   -994555.57845  22309152.9304   22309149.5044
      2074.0444
    -98497.02347    -79149.98844  23375064.0314   23375057.8714
        -0.3724
    786198.55147    600503.40645  23171830.7344   23171828.7894
     -1390.5244
 05 11 15 12 34 30.0000000  0  8G 2G 4G 5G 7G10G13G23G24
  -1545565.63748  -1192777.63346  20756986.4064   20756981.0664
      2478.3904
    -60813.02748    -50704.61346  20550841.6094   20550838.4024
        22.1734
   -642978.89547   -499163.84845  22817776.0474   22817773.4384
       880.6294
    671038.84447    512673.15645  21293265.7734   21293264.1214
     -1238.4694
  -2658648.97747  -2063994.41845  22820458.0944   22820454.9574
      4384.3184
  -1350119.32847  -1042711.82445  22297392.6954   22297389.1374
      2055.3164
    -98067.13746    -78815.02044  23375146.0554   23375140.0784
       -18.9984
    827962.32847    633046.57444  23179778.4064   23179775.8484
     -1392.6754
 05 11 15 12 35  0.0000000  0  8G 2G 4G 5G 7G10G13G23G24
  -1619729.47748  -1250567.62546  20742872.8984   20742867.3714
      2470.0294
    -61296.99248    -51081.73846  20550749.4614   20550746.1334
        14.1074
   -668973.63747   -519419.49645  22812830.0234   22812826.6724
       861.7714
    708484.73447    541851.77046  21300391.6024   21300389.4224
     -1251.4494
  -2789980.21147  -2166330.39844  22795466.0944   22795463.3874
      4375.4894
  -1411351.87547  -1090425.49645  22285740.9844   22285736.7664
      2036.3234
    -97074.21546    -78041.29744  23375333.7734   23375328.6724
       -37.8024
    869795.22347    665643.62544  23187738.9304   23187736.1174
     -1395.0254
 05 11 15 12 35 30.0000000  0  8G 2G 4G 5G 7G10G13G23G24
  -1693643.80148  -1308163.20746  20728808.1174   20728802.2894
      2461.7384
    -61540.91448    -51271.81246  20550702.7664   20550699.7274
         6.1394
   -694404.85947   -539236.03545  22807990.4844   22807987.5784
       843.0214
    746317.62147    571331.93845  21307590.9454   21307589.0274
     -1264.3084
  -2921046.82047  -2268460.19545  22770525.1024   22770521.8834
      4366.6834
  -1472014.71547  -1137695.23845  22274197.1414   22274192.8874
      2017.3524
    -95519.84046    -76830.07444  23375630.0784   23375624.3674
       -56.4854
    911696.62147    698294.03944  23195712.3674   23195710.0434
     -1397.2754
 05 11 15 12 36  0.0000000  0  8G 2G 4G 5G 7G10G13G23G24
  -1767311.43448  -1365566.54746  20714789.2974   20714783.7814
      2453.5354
    -61548.50848    -51277.74246  20550701.8594   20550698.3754
        -1.7084
   -719276.69547   -558616.69545  22803257.8364   22803254.6024
       824.4034
    784533.10247    601110.22745  21314862.8754   21314860.5784
     -1277.0274
  -3051850.35547  -2370385.02045  22745633.9844   22745630.9454
      4357.9244
  -1532109.50847  -1184522.33245  22262761.6334   22262757.7114
      1998.4194
    -93407.78947    -75184.32844  23376032.2114   23376026.6484
       -75.0394
    953662.88347    730995.01644  23203698.0474   23203695.3484
     -1399.4144
 05 11 15 12 36 30.0000000  0  8G 2G 4G 5G 7G10G13G23G24
  -1840736.19948  -1422780.64546  20700817.2814   20700812.1094
      2445.4804
    -61324.53948    -51103.23046  20550743.9614   20550741.1724
        -9.3834
   -743594.01247   -577565.25445  22798630.3284   22798627.3164
       805.9714
    823125.98847    631182.59845  21322207.2034   21322204.3914
     -1289.5574
  -3182393.18447  -2472106.68045  22720792.8284   22720789.7934
      4349.2574
  -1591639.23447  -1230909.11745  22251433.2664   22251429.3794
      1979.6204
    -90743.43046    -73108.22744  23376539.2894   23376533.9064
       -93.4024
    995689.77747    763743.21144  23211695.1334   23211692.6094
     -1401.3904
 05 11 15 12 37  0.0000000  0  8G 2G 4G 5G 7G10G13G23G24
  -1913919.64848  -1479806.70346  20686890.7504   20686885.1844
      2437.4094
    -60871.55148    -50750.24246  20550830.4384   20550827.7344
       -17.0314
   -767359.63347   -596083.94145  22794107.7584   22794105.3054
       787.5674
    862093.04747    661546.53945  21329622.1954   21329619.5124
     -1302.0414
  -3312675.68047  -2573625.48044  22696000.1644   22695997.4264
      4340.5484
  -1650603.84047  -1276855.55545  22240212.3364   22240208.6454
      1960.7344
    -87529.35546    -70603.76244  23377151.0634   23377145.6954
      -111.7394
   1037775.01247    796536.89544  23219704.1334   23219700.7894
     -1403.3514
 05 11 15 12 37 30.0000000  0  8G 2G 4G 5G 7G10G13G23G24
  -1986854.10548  -1536638.74246  20673011.8444   20673006.7894
      2429.0964
    -60182.79348    -50213.55946  20550961.3834   20550958.2664
       -24.8964
   -790567.05147   -614167.65245  22789691.9064   22789689.1804
       768.9564
    901440.62147    692206.97345  21337109.8444   21337106.7194
     -1314.7294
  -3442688.86747  -2674934.44544  22671259.3754   22671257.2894
      4331.5444
  -1708994.46947  -1322354.73445  22229101.2974   22229097.1134
      1941.5854
    -83759.41447    -67666.11744  23377868.2974   23377862.2504
      -130.2724
   1079925.03947    829381.06344  23227724.2424   23227721.7664
     -1405.5194
 05 11 15 12 38  0.0000000  0  8G 2G 4G 5G 7G10G13G23G24
  -2059541.08248  -1593277.94146  20659180.2664   20659174.6414
      2420.8124
    -59260.62548    -49494.99246  20551136.6724   20551133.9804
       -32.7034
   -813219.09047   -631818.60245  22785381.1174   22785378.4384
       750.4224
    941165.51647    723161.42645  21344669.3834   21344666.3594
     -1327.3234
  -3572432.72347  -2776033.53144  22646570.4304   22646567.5514
      4322.5234
  -1766811.41847  -1367406.88345  22218098.9064   22218095.5314
      1922.4334
    -79436.39847    -64297.51244  23378690.8984   23378684.7424
      -148.7284
   1122137.98846    862274.26244  23235757.2344   23235755.1884
     -1407.6444
 05 11 15 22 59  0.0000000  0  6G 1G 5G14G22G25G30
   -113449.78547    -71933.98846  21386379.9224   21386376.9574
      3252.2364
     53768.70347     29197.77745  22715036.3674   22715033.0824
     -1589.5754
    -41709.31647    -29043.40246  20393347.4534   20393342.8204
      1208.9704
     68636.19147     36337.88745  22485310.4534   22485305.5634
     -1928.9484
    -97893.47748    -63922.16046  21692718.9844   21692715.7384
      2809.1954
    -10814.84848    -10955.76646  20684900.7584   20684897.6684
       329.2164
 05 11 15 22 59 30.0000000  0  6G 1G 5G14G22G25G30
   -211248.53147   -148140.82046  21367769.2664   21367766.2464
      3257.9994
    101330.69147     66259.01244  22724087.3914   22724083.6604
     -1588.5284
    -78086.23047    -57389.07446  20386425.0234   20386420.5744
      1209.2334
    126321.39847     81287.36345  22496287.6334   22496282.8204
     -1925.3254
   -182381.66448   -129757.12546  21676641.4924   21676637.9964
      2814.1024
    -20630.74648    -18604.53946  20683033.1094   20683029.8204
       321.9994
 05 11 15 23  0  0.0000000  0  6G 1G 5G14G22G25G30
   -308555.21947   -223964.23046  21349252.4844   21349249.1604
      3238.1294
    149522.80947    103811.26245  22733257.6174   22733254.8984
     -1612.9614
   -113805.86747    -85222.59046  20379627.5784   20379623.3594
      1183.8544
    184559.35547    126667.53945  22507370.2974   22507364.7074
     -1947.1834
   -266353.20348   -195189.50846  21660662.3754   21660658.7274
      2793.4304
    -29567.41047    -25568.19546  20681332.6414   20681329.0354
       289.2504
 05 11 15 23  0 30.0000000  0  6G 1G 5G14G22G25G30
   -405170.11747   -299248.59046  21330867.5864   21330864.0164
      3214.5554
    198540.69547    142006.95745  22742586.0084   22742582.3754
     -1640.9664
   -148669.22347   -112388.86346  20372993.1954   20372989.1134
      1154.8034
    243545.66447    172630.85245  22518594.2274   22518589.6484
     -1972.6064
   -349610.02048   -260064.96546  21644819.5554   21644815.5124
      2769.1034
    -37428.08648    -31693.41446  20679836.8914   20679833.1884
       252.8924
 05 11 15 23  1  0.0000000  0  6G 1G 5G14G22G25G30
   -501073.73447   -373978.70746  21312617.4844   21312614.2384
      3190.9954
    248399.44947    180857.91045  22752073.6024   22752070.2074
     -1668.8124
   -182657.60947   -138873.34446  20366525.3284   20366521.7114
      1125.7904
    303295.66447    219189.23845  22529964.7114   22529959.6644
     -1997.8804
   -432134.68048   -324369.90646  21629115.4774   21629111.5474
      2744.8604
    -44196.17248    -36967.26246  20678548.6484   20678545.3794
       216.6464
 05 11 15 23  1 30.0000000  0  6G 1G 5G14G22G25G30
   -596293.50848   -448175.95346  21294498.0634   21294494.8594
      3168.4364
    299067.51647    220339.47345  22761715.1954   22761712.6764
     -1695.5194
   -215798.75447   -164697.62946  20360219.1174   20360215.0634
      1097.7894
    363777.91447    266318.21945  22541474.2894   22541468.7194
     -2022.0174
   -513956.05148   -388126.82046  21613545.2194   21613541.2344
      2721.6674
    -49902.09848    -41413.45746  20677462.7814   20677459.5274
       181.4994
 05 11 15 23  2  0.0000000  0  6G 1G 5G14G22G25G30
   -690865.96148   -521868.79346  21276501.4534   21276498.4734
      3147.1484
    350504.09847    260419.88345  22771503.8834   22771500.3754
     -1720.8134
   -248130.07447   -189890.89146  20354066.7584   20354062.6254
      1071.0944
    424951.66847    313986.03945  22553115.1334   22553109.6954
     -2044.7454
   -595112.49648   -451365.61346  21598101.5164   21598098.0514
      2699.8094
    -54585.43048    -45062.81646  20676571.6484   20676568.4264
       147.7294
 05 11 15 23  2 30.0000000  0  7G 1G 5G 6G14G22G25G30
   -784830.02348   -595087.56246  21258620.3834   21258617.4384
      3127.2324
    402665.80947    301065.32845  22781429.8914   22781426.0514
     -1744.5854
   -205706.17246   -157584.61743  24093715.0004   24093713.8874
      3715.4324
   -279691.34847   -214484.11746  20348060.6884   20348056.3754
      1045.7944
    486773.37147    362158.75445  22564879.1644   22564874.5004
     -2065.9414
   -675644.89148   -514118.14146  21582776.6724   21582772.8794
      2679.3894
    -58288.24248    -47948.14846  20675867.2814   20675863.3094
       115.4364
 05 11 15 23  3  0.0000000  0  7G 1G 5G 6G14G22G25G30
   -878228.37947   -667865.51646  21240847.5864   21240844.1484
      3108.6994
    455505.73447    342239.23445  22791484.6564   22791481.2774
     -1766.8304
   -316824.67246   -244170.42243  24072570.2194   24072568.8404
      3700.1894
   -310525.73447   -238510.93746  20342193.3364   20342188.8444
      1021.8904
    549196.35547    410800.00445  22576758.2974   22576753.5474
     -2085.6264
   -755597.72348   -576419.05546  21567562.0474   21567558.2194
      2660.4044
    -61056.48847    -50105.25046  20675339.7664   20675337.0084
        84.6314
 05 11 15 23  3 30.0000000  0  7G 1G 5G 6G14G22G25G30
   -971089.37947   -740224.76246  21223176.7034   21223173.3134
      3090.9814
    508991.28547    383916.24644  22801662.3754   22801659.4654
     -1788.1174
   -427503.24246   -330413.47743  24051509.2664   24051507.3794
      3685.7114
   -340662.13347   -261993.87146  20336458.3134   20336454.0784
       998.8254
    612188.14847    459884.47745  22588745.1884   22588740.4924
     -2104.3574
   -835001.22348   -638291.91446  21552452.2894   21552448.2734
      2642.3054
    -62921.33247    -51558.39546  20674985.0394   20674981.9494
        54.7404
 05 11 15 23  4  0.0000000  0  7G 1G 5G 6G14G22G25G30
  -1063434.00848   -812181.64546  21205604.2034   21205600.8244
      3073.9294
    563097.14147    426076.60944  22811958.4924   22811955.5164
     -1808.6074
   -537761.98446   -416329.38343  24030527.9924   24030525.6254
      3671.8604
   -370122.57447   -284950.09046  20330851.8674   20330848.3094
       976.4584
    675723.51647    509392.53545  22600835.6414   22600831.0984
     -2122.2804
   -913878.23048   -699754.52746  21537442.4694   21537438.3874
      2624.9314
    -63907.01647    -52326.47346  20674797.6804   20674794.6684
        25.6164
 05 11 15 23  4 30.0000000  0  7G 1G 5G 6G14G22G25G30
  -1155277.70748   -883748.18746  21188126.8134   21188123.5044
      3057.3454
    617803.58247    468704.96944  22822369.1484   22822366.1484
     -1828.4714
   -647614.74646   -501928.88343  24009623.2734   24009621.2894
      3658.4344
   -398922.88347   -307391.91046  20325371.5784   20325367.7734
       954.5744
    739782.57047    559308.61745  22613025.6094   22613021.1454
     -2139.5844
   -992246.12548   -760820.42246  21522529.3134   21522525.4964
      2608.0894
    -64032.15647    -52424.00846  20674773.5164   20674770.8634
        -2.9264
 05 11 15 23  5  0.0000000  0  7G 1G 5G 6G14G22G25G30
  -1246638.09848   -954938.12546  21170741.4064   21170738.0864
      3041.4504
    673088.62547    511784.19144  22832889.2114   22832886.7424
     -1847.5074
   -757078.09446   -587224.94543  23988793.0314   23988791.7424
      3645.6574
   -427081.67247   -329333.84446  20320013.1884   20320009.6914
       933.4184
    804343.66047    609615.89845  22625311.3674   22625307.1884
     -2156.0734
  -1070124.24248   -821504.67646  21507709.9144   21507706.1564
      2591.9984
    -63317.57848    -51867.21946  20674910.2504   20674907.0314
       -30.6734
 05 11 15 23  5 30.0000000  0  7G 1G 5G 6G14G22G25G30
  -1337535.74248  -1025767.48446  21153444.4454   21153441.1374
      3026.1234
    728927.33247    555294.84444  22843514.9304   22843512.0784
     -1865.8314
   -866171.33246   -672232.61743  23968032.7114   23968032.2664
      3633.4104
   -454620.35247   -350792.57446  20314772.7504   20314768.8714
       912.8454
    869381.83247    660294.95745  22637687.4774   22637682.9304
     -2171.8364
  -1147535.16048   -881824.87946  21492979.3364   21492975.3524
      2576.5334
    -61787.09848    -50674.65646  20675201.3834   20675198.3484
       -57.7444
 05 11 15 23  6  0.0000000  0  7G 1G 5G 6G14G22G25G30
  -1427985.77748  -1096248.03946  21136232.4064   21136229.7734
      3011.3564
    785300.16847    599221.68044  22854242.7894   22854240.0234
     -1883.4474
   -974908.48046   -756962.83643  23947341.7194   23947339.7624
      3621.6824
   -481554.60947   -371780.32846  20309647.1954   20309643.3164
       892.8594
    934877.36347    711330.42245  22650151.0314   22650146.3954
     -2186.8954
  -1224495.87948   -941794.28146  21478334.0634   21478330.5044
      2561.7004
    -59459.34848    -48860.84846  20675644.0944   20675640.9774
       -84.1384
 05 11 15 23  6 30.0000000  0  7G 1G 5G 6G14G22G25G30
  -1518006.74648  -1166394.26646  21119101.7664   21119098.8914
      2997.2344
    842184.30147    643546.92644  22865067.2424   22865064.5044
     -1900.2684
  -1083306.75846   -841428.94943  23926713.4924   23926712.1804
      3610.5544
   -507903.85547   -392312.23846  20304633.0084   20304629.1484
       873.5494
   1000807.78547    762704.74245  22662697.5554   22662692.2194
     -2201.1754
  -1301026.77748  -1001428.75846  21463770.6174   21463767.0514
      2547.5654
    -56355.83248    -46442.55146  20676234.8754   20676232.2464
      -109.7864
 05 11 15 23  7  0.0000000  0  7G 1G 5G 6G14G22G25G30
  -1607612.73048  -1236217.12946  21102050.3524   21102047.2664
      2983.4154
    899561.30947    688256.25444  22875985.3284   22875983.0314
     -1916.6464
  -1191379.03546   -925641.05543  23906148.6414   23906146.6214
      3599.6944
   -533683.10247   -412399.98446  20299727.6174   20299723.8634
       854.5674
   1067154.58247    814403.50445  22675322.1884   22675318.1564
     -2215.0044
  -1377143.87548  -1060740.79346  21449285.9694   21449282.2854
      2533.8004
    -52494.06248    -43433.40246  20676969.5474   20676966.6914
      -135.0254
 05 11 15 23  7 30.0000000  0  7G 1G 5G 6G14G22G25G30
  -1696812.86748  -1305723.74646  21085076.1414   21085073.1564
      2970.0214
    957417.67647    733339.08244  22886995.4304   22886992.8134
     -1932.4564
  -1299133.32846  -1009605.33244  23885643.2274   23885641.6094
      3589.2184
   -558902.05947   -432051.14146  20294928.7734   20294924.6684
       836.0324
   1133904.19547    866416.15645  22688024.0474   22688019.4884
     -2228.2624
  -1452858.17648  -1119738.96546  21434877.8364   21434874.3554
      2520.5284
    -47886.63348    -39843.21546  20677846.2274   20677843.8324
      -159.7164
 05 11 15 23  8  0.0000000  0  7G 1G 5G 6G14G22G25G30
  -1785620.09048  -1374924.20746  21068176.8914   21068173.8404
      2956.9724
   1015736.24247    778782.05944  22898092.7274   22898090.6524
     -1947.7824
  -1406581.12146  -1093330.82444  23865196.8914   23865195.1844
      3579.0404
   -583574.41047   -451276.37546  20290233.8674   20290230.2194
       817.8654
   1201039.69147    918729.48045  22700799.7344   22700795.2814
     -2241.0434
  -1528184.59848  -1178434.87946  21420543.9064   21420540.3634
      2507.6614
    -42549.54348    -35684.47346  20678862.2584   20678859.1954
      -183.9624
 05 11 15 23  8 30.0000000  0  7G 1G 5G 6G14G22G25G30
  -1874045.89148  -1443827.44146  21051349.7584   21051346.7854
      2944.3684
   1074501.13347    824572.83644  22909276.0084   22909273.4304
     -1962.5114
  -1513732.75046  -1176825.57844  23844806.5864   23844804.7234
      3569.2654
   -607712.60547   -470085.38746  20285640.3914   20285636.6054
       800.1794
   1268545.22347    971331.14145  22713646.2274   22713641.4574
     -2253.2274
  -1603136.35248  -1236838.86346  21406281.1174   21406277.4454
      2495.2934
    -36497.84848    -30968.87946  20680013.3914   20680010.6954
      -207.6464
 05 11 15 23  9  0.0000000  0  7G 1G 5G 6G14G22G25G30
  -1962094.11348  -1512436.46946  21034594.8524   21034591.8984
      2931.8414
   1133704.17247    870705.02045  22920541.8284   22920539.1294
     -1977.0224
  -1620590.88346  -1260091.60243  23824471.3834   23824469.4144
      3559.5354
   -631321.46947   -488481.91846  20281147.5864   20281143.9104
       782.5974
   1336412.38747   1024214.61345  22726561.3364   22726555.7274
     -2265.1894
  -1677718.91848  -1294955.14846  21392088.5164   21392085.1174
      2483.0674
    -29738.79348    -25702.10246  20681299.7274   20681296.9184
      -231.1374
 05 11 15 23  9 30.0000000  0  7G 1G 5G 6G14G22G25G30
  -2049774.22348  -1580758.64546  21017909.5234   21017907.1724
      2919.6394
   1193331.25847    917167.64145  22931888.5944   22931886.1254
     -1991.0534
  -1727163.95346  -1343135.46143  23804192.1094   23804189.7704
      3550.0924
   -654411.17247   -506473.91846  20276754.0164   20276749.9224
       765.3734
   1404627.30547   1077369.03545  22739542.0084   22739537.2814
     -2276.6774
